{
    "cinemas": [
        {
            "id": "40255",
            "slug": "arclight-cinemas-los-angeles",
            "name": "ArcLight Cinemas - Hollywood",
            "chain_id": "44",
            "telephone": "464-1478",
            "website": "http://www.arclightcinemas.com/",
            "location": {
                "lat": 34.097141,
                "lon": -118.3275007,
                "address": {
                    "display_text": "6360 Sunset Blvd, Los Angeles, CA 90028, United States",
                    "street": "Sunset Boulevard",
                    "house": "6360",
                    "zipcode": "90028",
                    "city": "Los ﾃ］geles",
                    "state": "California",
                    "state_abbr": "CA",
                    "country": "United States",
                    "country_code": "US"
                }
            },
            "booking_type": "external"
        },
        {
            "id": "40252",
            "slug": "tcl-chinese-theatre-hollywood",
            "name": "TCL Chinese Theatre",
            "chain_id": null,
            "telephone": "+1 323 461 3331",
            "website": "http://www.tclchinesetheatres.com/",
            "location": {
                "lat": 34.1020231,
                "lon": -118.3409712,
                "address": {
                    "display_text": "6925 hollywood blvd, hollywood, ca 90028, united states",
                    "street": "6925 Hollywood Boulevard",
                    "house": "6801",
                    "zipcode": "90028",
                    "city": "Hollywood",
                    "state": "California",
                    "state_abbr": "CA",
                    "country": "United States",
                    "country_code": "US"
                }
            },
            "booking_type": "external"
        },
        {
            "id": "40220",
            "slug": "landmark-theatres-los-angeles",
            "name": "The Landmark",
            "chain_id": "33",
            "telephone": "(310) 475-0408",
            "website": "http://www.landmarktheatres.com/",
            "location": {
                "lat": 34.0396352,
                "lon": -118.4289445,
                "address": {
                    "display_text": "Westside Pavilion Mall, 10850 West Pico Boulevard, Los Angeles, CA 90064, United States",
                    "street": "West Pico Boulevard",
                    "house": "10850",
                    "zipcode": "90064",
                    "city": "Los ﾃ］geles",
                    "state": "California",
                    "state_abbr": "CA",
                    "country": "United States",
                    "country_code": "US"
                }
            },
            "booking_type": "external"
        },
        {
            "id": "40216",
            "slug": "aero-theatre-santa-monica",
            "name": "Aero Theatre",
            "chain_id": "313",
            "telephone": "310-260-1528",
            "website": "http://americancinemathequecalendar.com/",
            "location": {
                "lat": 34.0318827,
                "lon": -118.4953217,
                "address": {
                    "display_text": "1328 Montana Ave, Santa Monica, CA 90403, United States",
                    "street": "Montana Avenue",
                    "house": "1328",
                    "zipcode": "90403",
                    "city": "Santa Monica",
                    "state": "California",
                    "state_abbr": "CA",
                    "country": "United States",
                    "country_code": "US"
                }
            },
            "booking_type": "external"
        },
        {
            "id": "40211",
            "slug": "amc-century-city-15-los-angeles",
            "name": "AMC Century City 15",
            "chain_id": "26",
            "telephone": "(310) 277-2262",
            "website": "https://www.amctheatres.com/movie-theatres/los-angeles/amc-century-city-15",
            "location": {
                "lat": 34.0573884,
                "lon": -118.4186013,
                "address": {
                    "display_text": "10250 Santa Monica Blvd, Los Angeles, CA 90067, United States",
                    "street": "Santa Monica Boulevard",
                    "house": "10250",
                    "zipcode": "90067",
                    "city": "Los ﾃ］geles",
                    "state": "California",
                    "state_abbr": "CA",
                    "country": "United States",
                    "country_code": "US"
                }
            },
            "booking_type": "external"
        },
        {
            "id": "40332",
            "slug": "regal-l-a-live-a-barco-innovation-center",
            "name": "Regal L.A. LIVE: A Barco Innovation Center",
            "chain_id": "27",
            "telephone": "(844) 462-7342 ext 4046",
            "website": "http://www.regmovies.com/theaters/regal-la-live-a-barco-innovation-center/20263",
            "location": {
                "lat": 34.045775,
                "lon": -118.2680612,
                "address": {
                    "display_text": "1000 W Olympic Blvd, Los Angeles, CA 90015, United States",
                    "street": "West Olympic Boulevard",
                    "house": "1000",
                    "zipcode": "90015",
                    "city": "Los ﾃ］geles",
                    "state": "California",
                    "state_abbr": "CA",
                    "country": "United States",
                    "country_code": "US"
                }
            },
            "booking_type": "external"
        }
    ]
}